[
  {
    "id": "london_marathon_2026",
    "title": "TCS London Marathon 2026",
    "date_start": "2026-04-26",
    "location": { "city": "London", "country": "United Kingdom", "full_address": "Greenwich Park to The Mall, London" },
    "category": "endurance",
    "sport_tag": "marathon",
    "registration_link": "https://www.tcslondonmarathon.com/",
    "federation": "London Marathon Events",
    "image_logo_url": null
  },
  {
    "id": "berlin_marathon_2026",
    "title": "BMW Berlin Marathon 2026",
    "date_start": "2026-09-27",
    "location": { "city": "Berlin", "country": "Germany", "full_address": "Brandenburger Tor, Berlin" },
    "category": "endurance",
    "sport_tag": "marathon",
    "registration_link": "https://www.bmw-berlin-marathon.com/en/",
    "federation": "SCC Events",
    "image_logo_url": null
  },
  {
    "id": "amsterdam_marathon_2026",
    "title": "TCS Amsterdam Marathon 2026",
    "date_start": "2026-10-18",
    "location": { "city": "Amsterdam", "country": "Netherlands", "full_address": "Olympic Stadium, Amsterdam" },
    "category": "endurance",
    "sport_tag": "marathon",
    "registration_link": "https://www.tcsamsterdammarathon.nl/en/",
    "federation": "Le Champion",
    "image_logo_url": null
  },
  {
    "id": "madrid_marathon_2026",
    "title": "EDP Rock 'n' Roll Madrid Marathon 2026",
    "date_start": "2026-04-26",
    "location": { "city": "Madrid", "country": "Spain", "full_address": "Paseo de la Castellana, Madrid" },
    "category": "endurance",
    "sport_tag": "marathon",
    "registration_link": "https://www.runrocknroll.com/madrid",
    "federation": "Rock 'n' Roll",
    "image_logo_url": null
  },
  {
    "id": "barcelona_marathon_2026",
    "title": "Zurich Marathon Barcelona 2026",
    "date_start": "2026-03-15",
    "location": { "city": "Barcelona", "country": "Spain", "full_address": "Placa Espanya, Barcelona" },
    "category": "endurance",
    "sport_tag": "marathon",
    "registration_link": "https://www.zurichmaratobarcelona.es/en/",
    "federation": "RPM Racing",
    "image_logo_url": null
  },
  {
    "id": "rome_marathon_2026",
    "title": "Acea Run Rome The Marathon 2026",
    "date_start": "2026-03-22",
    "location": { "city": "Rome", "country": "Italy", "full_address": "Colosseum, Rome" },
    "category": "endurance",
    "sport_tag": "marathon",
    "registration_link": "https://www.runromethemarathon.com/en/",
    "federation": "Italia Marathon Club",
    "image_logo_url": null
  },
  {
    "id": "vienna_marathon_2026",
    "title": "Vienna City Marathon 2026",
    "date_start": "2026-04-19",
    "location": { "city": "Vienna", "country": "Austria", "full_address": "Ringstrasse, Vienna" },
    "category": "endurance",
    "sport_tag": "marathon",
    "registration_link": "https://www.vienna-marathon.com/",
    "federation": "VCM",
    "image_logo_url": null
  },
  {
    "id": "stockholm_marathon_2026",
    "title": "Stockholm Marathon 2026",
    "date_start": "2026-06-06",
    "location": { "city": "Stockholm", "country": "Sweden", "full_address": "Olympic Stadium, Stockholm" },
    "category": "endurance",
    "sport_tag": "marathon",
    "registration_link": "https://www.stockholmmarathon.se/",
    "federation": "Marathon Group",
    "image_logo_url": null
  },
  {
    "id": "lisbon_marathon_2026",
    "title": "EDP Lisbon Marathon 2026",
    "date_start": "2026-10-11",
    "location": { "city": "Lisbon", "country": "Portugal", "full_address": "Praca do Comercio, Lisbon" },
    "category": "endurance",
    "sport_tag": "marathon",
    "registration_link": "https://www.maratonaclubedeportugal.com/",
    "federation": "Maratona Clube de Portugal",
    "image_logo_url": null
  },
  {
    "id": "dublin_marathon_2026",
    "title": "Irish Life Dublin Marathon 2026",
    "date_start": "2026-10-25",
    "location": { "city": "Dublin", "country": "Ireland", "full_address": "Merrion Square, Dublin" },
    "category": "endurance",
    "sport_tag": "marathon",
    "registration_link": "https://www.dublinmarathon.ie/",
    "federation": "Dublin Marathon",
    "image_logo_url": null
  },
  {
    "id": "copenhagen_marathon_2026",
    "title": "Copenhagen Marathon 2026",
    "date_start": "2026-05-17",
    "location": { "city": "Copenhagen", "country": "Denmark", "full_address": "Islands Brygge, Copenhagen" },
    "category": "endurance",
    "sport_tag": "marathon",
    "registration_link": "https://copenhagenmarathon.dk/en/",
    "federation": "Sparta Athletics",
    "image_logo_url": null
  },
  {
    "id": "hyrox_london_2026",
    "title": "HYROX London 2026",
    "date_start": "2026-03-07",
    "location": { "city": "London", "country": "United Kingdom", "full_address": "ExCeL London" },
    "category": "force",
    "sport_tag": "hyrox",
    "registration_link": "https://hyrox.com/find-your-race/",
    "federation": "HYROX",
    "image_logo_url": null
  },
  {
    "id": "hyrox_berlin_2026",
    "title": "HYROX Berlin 2026",
    "date_start": "2026-01-24",
    "location": { "city": "Berlin", "country": "Germany", "full_address": "Messe Berlin" },
    "category": "force",
    "sport_tag": "hyrox",
    "registration_link": "https://hyrox.com/find-your-race/",
    "federation": "HYROX",
    "image_logo_url": null
  },
  {
    "id": "hyrox_munich_2026",
    "title": "HYROX Munich 2026",
    "date_start": "2026-02-28",
    "location": { "city": "Munich", "country": "Germany", "full_address": "Messe Munchen" },
    "category": "force",
    "sport_tag": "hyrox",
    "registration_link": "https://hyrox.com/find-your-race/",
    "federation": "HYROX",
    "image_logo_url": null
  },
  {
    "id": "hyrox_hamburg_2026",
    "title": "HYROX Hamburg 2026",
    "date_start": "2026-03-21",
    "location": { "city": "Hamburg", "country": "Germany", "full_address": "Hamburg Messe" },
    "category": "force",
    "sport_tag": "hyrox",
    "registration_link": "https://hyrox.com/find-your-race/",
    "federation": "HYROX",
    "image_logo_url": null
  },
  {
    "id": "hyrox_cologne_2026",
    "title": "HYROX Cologne 2026",
    "date_start": "2026-10-24",
    "location": { "city": "Cologne", "country": "Germany", "full_address": "Koelnmesse" },
    "category": "force",
    "sport_tag": "hyrox",
    "registration_link": "https://hyrox.com/find-your-race/",
    "federation": "HYROX",
    "image_logo_url": null
  },
  {
    "id": "hyrox_amsterdam_2026",
    "title": "HYROX Amsterdam 2026",
    "date_start": "2026-04-18",
    "location": { "city": "Amsterdam", "country": "Netherlands", "full_address": "RAI Amsterdam" },
    "category": "force",
    "sport_tag": "hyrox",
    "registration_link": "https://hyrox.com/find-your-race/",
    "federation": "HYROX",
    "image_logo_url": null
  },
  {
    "id": "hyrox_barcelona_2026",
    "title": "HYROX Barcelona 2026",
    "date_start": "2026-05-16",
    "location": { "city": "Barcelona", "country": "Spain", "full_address": "Fira Barcelona" },
    "category": "force",
    "sport_tag": "hyrox",
    "registration_link": "https://hyrox.com/find-your-race/",
    "federation": "HYROX",
    "image_logo_url": null
  },
  {
    "id": "hyrox_madrid_2026",
    "title": "HYROX Madrid 2026",
    "date_start": "2026-11-07",
    "location": { "city": "Madrid", "country": "Spain", "full_address": "IFEMA Madrid" },
    "category": "force",
    "sport_tag": "hyrox",
    "registration_link": "https://hyrox.com/find-your-race/",
    "federation": "HYROX",
    "image_logo_url": null
  },
  {
    "id": "hyrox_milan_2026",
    "title": "HYROX Milan 2026",
    "date_start": "2026-09-26",
    "location": { "city": "Milan", "country": "Italy", "full_address": "Fiera Milano" },
    "category": "force",
    "sport_tag": "hyrox",
    "registration_link": "https://hyrox.com/find-your-race/",
    "federation": "HYROX",
    "image_logo_url": null
  },
  {
    "id": "hyrox_vienna_2026",
    "title": "HYROX Vienna 2026",
    "date_start": "2026-12-05",
    "location": { "city": "Vienna", "country": "Austria", "full_address": "Messe Wien" },
    "category": "force",
    "sport_tag": "hyrox",
    "registration_link": "https://hyrox.com/find-your-race/",
    "federation": "HYROX",
    "image_logo_url": null
  },
  {
    "id": "ibjjf_london_open_2026",
    "title": "IBJJF London International Open 2026",
    "date_start": "2026-03-14",
    "location": { "city": "London", "country": "United Kingdom", "full_address": "London" },
    "category": "combat",
    "sport_tag": "jjb",
    "registration_link": "https://ibjjf.com/events/london-international-open-2026",
    "federation": "IBJJF",
    "image_logo_url": null
  },
  {
    "id": "ibjjf_rome_open_2026",
    "title": "IBJJF Rome International Open 2026",
    "date_start": "2026-05-09",
    "location": { "city": "Rome", "country": "Italy", "full_address": "Rome" },
    "category": "combat",
    "sport_tag": "jjb",
    "registration_link": "https://ibjjf.com/events/rome-international-open-2026",
    "federation": "IBJJF",
    "image_logo_url": null
  },
  {
    "id": "ibjjf_lisbon_open_2026",
    "title": "IBJJF Lisbon International Open 2026",
    "date_start": "2026-06-13",
    "location": { "city": "Lisbon", "country": "Portugal", "full_address": "Lisbon" },
    "category": "combat",
    "sport_tag": "jjb",
    "registration_link": "https://ibjjf.com/events/lisbon-international-open-2026",
    "federation": "IBJJF",
    "image_logo_url": null
  },
  {
    "id": "ibjjf_amsterdam_open_2026",
    "title": "IBJJF Amsterdam International Open 2026",
    "date_start": "2026-09-19",
    "location": { "city": "Amsterdam", "country": "Netherlands", "full_address": "Amsterdam" },
    "category": "combat",
    "sport_tag": "jjb",
    "registration_link": "https://ibjjf.com/events/amsterdam-international-open-2026",
    "federation": "IBJJF",
    "image_logo_url": null
  },
  {
    "id": "ibjjf_european_2026",
    "title": "IBJJF European Championship 2026",
    "date_start": "2026-01-19",
    "location": { "city": "Lisbon", "country": "Portugal", "full_address": "Lisbon, Portugal" },
    "category": "combat",
    "sport_tag": "jjb",
    "registration_link": "https://ibjjf.com/events/european-ibjjf-jiu-jitsu-championship-2026",
    "federation": "IBJJF",
    "image_logo_url": null
  },
  {
    "id": "crossfit_open_europe_2026",
    "title": "CrossFit Open 2026 - Europe",
    "date_start": "2026-02-26",
    "location": { "city": "Europe", "country": "Europe", "full_address": "All CrossFit Boxes" },
    "category": "force",
    "sport_tag": "crossfit",
    "registration_link": "https://games.crossfit.com/open/overview",
    "federation": "CrossFit",
    "image_logo_url": null
  },
  {
    "id": "crossfit_semifinal_europe_2026",
    "title": "CrossFit Semifinal Europe 2026",
    "date_start": "2026-05-15",
    "location": { "city": "Berlin", "country": "Germany", "full_address": "Berlin" },
    "category": "force",
    "sport_tag": "crossfit",
    "registration_link": "https://games.crossfit.com/",
    "federation": "CrossFit",
    "image_logo_url": null
  },
  {
    "id": "rogue_invitational_2026",
    "title": "Rogue Invitational Europe 2026",
    "date_start": "2026-10-03",
    "location": { "city": "London", "country": "United Kingdom", "full_address": "London" },
    "category": "force",
    "sport_tag": "crossfit",
    "registration_link": "https://www.roguefitness.com/invitational",
    "federation": "Rogue",
    "image_logo_url": null
  },
  {
    "id": "eiger_ultra_trail_2026",
    "title": "Eiger Ultra Trail 2026",
    "date_start": "2026-07-18",
    "location": { "city": "Grindelwald", "country": "Switzerland", "full_address": "Grindelwald, Swiss Alps" },
    "category": "endurance",
    "sport_tag": "trail",
    "registration_link": "https://www.eigerultratrail.ch/en/",
    "federation": "Eiger Ultra Trail",
    "image_logo_url": null
  },
  {
    "id": "lavaredo_ultra_trail_2026",
    "title": "Lavaredo Ultra Trail 2026",
    "date_start": "2026-06-25",
    "location": { "city": "Cortina d'Ampezzo", "country": "Italy", "full_address": "Dolomites, Italy" },
    "category": "endurance",
    "sport_tag": "trail",
    "registration_link": "https://www.ultratrail.it/en/",
    "federation": "UTMB",
    "image_logo_url": null
  },
  {
    "id": "transgrancanaria_2026",
    "title": "Transgrancanaria 2026",
    "date_start": "2026-02-27",
    "location": { "city": "Gran Canaria", "country": "Spain", "full_address": "Gran Canaria, Canary Islands" },
    "category": "endurance",
    "sport_tag": "trail",
    "registration_link": "https://www.transgrancanaria.net/en/",
    "federation": "UTMB",
    "image_logo_url": null
  },
  {
    "id": "zegama_aizkorri_2026",
    "title": "Zegama-Aizkorri 2026",
    "date_start": "2026-05-24",
    "location": { "city": "Zegama", "country": "Spain", "full_address": "Basque Country, Spain" },
    "category": "endurance",
    "sport_tag": "trail",
    "registration_link": "https://www.zegama-aizkorri.com/",
    "federation": "UTMB",
    "image_logo_url": null
  },
  {
    "id": "mozart_100_2026",
    "title": "Mozart 100 2026",
    "date_start": "2026-06-13",
    "location": { "city": "Salzburg", "country": "Austria", "full_address": "Salzburg, Austria" },
    "category": "endurance",
    "sport_tag": "trail",
    "registration_link": "https://mozart100.com/",
    "federation": "UTMB",
    "image_logo_url": null
  },
  {
    "id": "ring_steiermark_2026",
    "title": "Trail Running Ring Steiermark 2026",
    "date_start": "2026-09-05",
    "location": { "city": "Schladming", "country": "Austria", "full_address": "Styria, Austria" },
    "category": "endurance",
    "sport_tag": "trail",
    "registration_link": "https://www.ringtrailrunning.at/",
    "federation": "Ring Trail Running",
    "image_logo_url": null
  },
  {
    "id": "ironman_frankfurt_2026",
    "title": "IRONMAN Frankfurt 2026",
    "date_start": "2026-06-28",
    "location": { "city": "Frankfurt", "country": "Germany", "full_address": "Frankfurt, Germany" },
    "category": "endurance",
    "sport_tag": "triathlon",
    "registration_link": "https://www.ironman.com/im-frankfurt",
    "federation": "IRONMAN",
    "image_logo_url": null
  },
  {
    "id": "ironman_703_barcelona_2026",
    "title": "IRONMAN 70.3 Barcelona 2026",
    "date_start": "2026-05-17",
    "location": { "city": "Barcelona", "country": "Spain", "full_address": "Calella, Barcelona" },
    "category": "endurance",
    "sport_tag": "triathlon",
    "registration_link": "https://www.ironman.com/im703-barcelona",
    "federation": "IRONMAN",
    "image_logo_url": null
  },
  {
    "id": "ironman_703_dubi_2026",
    "title": "IRONMAN 70.3 Duben 2026",
    "date_start": "2026-08-16",
    "location": { "city": "Dubai", "country": "Germany", "full_address": "Duben, Germany" },
    "category": "endurance",
    "sport_tag": "triathlon",
    "registration_link": "https://www.ironman.com/im703-duben",
    "federation": "IRONMAN",
    "image_logo_url": null
  },
  {
    "id": "challenge_roth_2026",
    "title": "Challenge Roth 2026",
    "date_start": "2026-07-05",
    "location": { "city": "Roth", "country": "Germany", "full_address": "Roth, Bavaria" },
    "category": "endurance",
    "sport_tag": "triathlon",
    "registration_link": "https://www.challenge-roth.com/en/",
    "federation": "Challenge Family",
    "image_logo_url": null
  },
  {
    "id": "spartan_trifecta_andorra_2026",
    "title": "Spartan Trifecta Weekend Andorra 2026",
    "date_start": "2026-06-20",
    "location": { "city": "Encamp", "country": "Andorra", "full_address": "Encamp, Andorra" },
    "category": "endurance",
    "sport_tag": "obstacle",
    "registration_link": "https://www.spartan.com/en/race/andorra",
    "federation": "Spartan",
    "image_logo_url": null
  },
  {
    "id": "spartan_munich_2026",
    "title": "Spartan Race Munich 2026",
    "date_start": "2026-08-08",
    "location": { "city": "Munich", "country": "Germany", "full_address": "Munich, Bavaria" },
    "category": "endurance",
    "sport_tag": "obstacle",
    "registration_link": "https://www.spartan.com/en/race/germany",
    "federation": "Spartan",
    "image_logo_url": null
  },
  {
    "id": "spartan_london_2026",
    "title": "Spartan Race London 2026",
    "date_start": "2026-04-25",
    "location": { "city": "London", "country": "United Kingdom", "full_address": "London" },
    "category": "endurance",
    "sport_tag": "obstacle",
    "registration_link": "https://www.spartan.com/en/race/uk",
    "federation": "Spartan",
    "image_logo_url": null
  },
  {
    "id": "ijf_grand_slam_paris_2026",
    "title": "IJF Grand Slam Paris 2026",
    "date_start": "2026-02-07",
    "location": { "city": "Paris", "country": "France", "full_address": "AccorHotels Arena, Paris" },
    "category": "combat",
    "sport_tag": "judo",
    "registration_link": "https://www.ijf.org/",
    "federation": "IJF",
    "image_logo_url": null
  },
  {
    "id": "ijf_grand_slam_dusseldorf_2026",
    "title": "IJF Grand Slam Dusseldorf 2026",
    "date_start": "2026-02-21",
    "location": { "city": "Dusseldorf", "country": "Germany", "full_address": "ISS Dome, Dusseldorf" },
    "category": "combat",
    "sport_tag": "judo",
    "registration_link": "https://www.ijf.org/",
    "federation": "IJF",
    "image_logo_url": null
  },
  {
    "id": "european_powerlifting_2026",
    "title": "IPF European Powerlifting Championship 2026",
    "date_start": "2026-05-02",
    "location": { "city": "Prague", "country": "Czech Republic", "full_address": "Prague" },
    "category": "force",
    "sport_tag": "powerlifting",
    "registration_link": "https://www.powerlifting.sport/",
    "federation": "IPF",
    "image_logo_url": null
  },
  {
    "id": "european_bench_press_2026",
    "title": "IPF European Bench Press Championship 2026",
    "date_start": "2026-03-14",
    "location": { "city": "Warsaw", "country": "Poland", "full_address": "Warsaw" },
    "category": "force",
    "sport_tag": "powerlifting",
    "registration_link": "https://www.powerlifting.sport/",
    "federation": "IPF",
    "image_logo_url": null
  },
  {
    "id": "semi_londres_2026",
    "title": "Big Half London 2026",
    "date_start": "2026-04-05",
    "location": { "city": "London", "country": "United Kingdom", "full_address": "Tower Bridge, London" },
    "category": "endurance",
    "sport_tag": "running",
    "registration_link": "https://www.thebighalf.co.uk/",
    "federation": "London Marathon Events",
    "image_logo_url": null
  },
  {
    "id": "semi_berlin_2026",
    "title": "Berlin Half Marathon 2026",
    "date_start": "2026-04-05",
    "location": { "city": "Berlin", "country": "Germany", "full_address": "Berlin" },
    "category": "endurance",
    "sport_tag": "running",
    "registration_link": "https://www.berliner-halbmarathon.de/en/",
    "federation": "SCC Events",
    "image_logo_url": null
  },
  {
    "id": "wings_for_life_2026",
    "title": "Wings for Life World Run 2026",
    "date_start": "2026-05-03",
    "location": { "city": "Multiple Cities", "country": "Europe", "full_address": "Worldwide" },
    "category": "endurance",
    "sport_tag": "running",
    "registration_link": "https://www.wingsforlifeworldrun.com/",
    "federation": "Red Bull",
    "image_logo_url": null
  },
  {
    "id": "adcc_europe_trials_2026",
    "title": "ADCC European Trials 2026",
    "date_start": "2026-03-21",
    "location": { "city": "Warsaw", "country": "Poland", "full_address": "Warsaw, Poland" },
    "category": "combat",
    "sport_tag": "grappling",
    "registration_link": "https://adcombat.com/",
    "federation": "ADCC",
    "image_logo_url": null
  },
  {
    "id": "grappling_industries_london_2026",
    "title": "Grappling Industries London 2026",
    "date_start": "2026-04-11",
    "location": { "city": "London", "country": "United Kingdom", "full_address": "London" },
    "category": "combat",
    "sport_tag": "grappling",
    "registration_link": "https://grapplingindustries.com/",
    "federation": "Grappling Industries",
    "image_logo_url": null
  },
  {
    "id": "tour_flanders_cyclo_2026",
    "title": "Tour of Flanders Cyclo 2026",
    "date_start": "2026-04-04",
    "location": { "city": "Oudenaarde", "country": "Belgium", "full_address": "Antwerp to Oudenaarde" },
    "category": "endurance",
    "sport_tag": "cycling",
    "registration_link": "https://www.rondevanvlaanderencyclo.be/en/",
    "federation": "Flanders Classics",
    "image_logo_url": null
  },
  {
    "id": "amstel_gold_cyclo_2026",
    "title": "Amstel Gold Race Cyclo 2026",
    "date_start": "2026-04-18",
    "location": { "city": "Valkenburg", "country": "Netherlands", "full_address": "Limburg, Netherlands" },
    "category": "endurance",
    "sport_tag": "cycling",
    "registration_link": "https://www.amstelgoldrace.nl/en/cyclo/",
    "federation": "ASO",
    "image_logo_url": null
  },
  {
    "id": "gran_fondo_stelvio_2026",
    "title": "Gran Fondo Stelvio Santini 2026",
    "date_start": "2026-06-06",
    "location": { "city": "Bormio", "country": "Italy", "full_address": "Stelvio Pass, Italy" },
    "category": "endurance",
    "sport_tag": "cycling",
    "registration_link": "https://www.granfondostelvio.eu/",
    "federation": "GF Stelvio",
    "image_logo_url": null
  },
  {
    "id": "otztaler_radmarathon_2026",
    "title": "Otztaler Radmarathon 2026",
    "date_start": "2026-08-30",
    "location": { "city": "Solden", "country": "Austria", "full_address": "Otztal, Austria" },
    "category": "endurance",
    "sport_tag": "cycling",
    "registration_link": "https://www.oetztaler-radmarathon.com/en/",
    "federation": "RSC Otztal",
    "image_logo_url": null
  },
  {
    "id": "adidas_runners_berlin_2026",
    "title": "adidas Runners Berlin 10K 2026",
    "date_start": "2026-09-12",
    "location": { "city": "Berlin", "country": "Germany", "full_address": "Berlin" },
    "category": "endurance",
    "sport_tag": "running",
    "registration_link": "https://www.adidasrunners.de/",
    "federation": "adidas",
    "image_logo_url": null
  },
  {
    "id": "strongman_champions_league_2026",
    "title": "Strongman Champions League Europe 2026",
    "date_start": "2026-07-11",
    "location": { "city": "Budapest", "country": "Hungary", "full_address": "Budapest" },
    "category": "force",
    "sport_tag": "powerlifting",
    "registration_link": "https://www.strongmanchampionsleague.com/",
    "federation": "SCL",
    "image_logo_url": null
  },
  {
    "id": "world_strongest_man_qualifier_2026",
    "title": "World's Strongest Man Europe Qualifier 2026",
    "date_start": "2026-04-25",
    "location": { "city": "Kaunas", "country": "Lithuania", "full_address": "Kaunas, Lithuania" },
    "category": "force",
    "sport_tag": "powerlifting",
    "registration_link": "https://www.theworldsstrongestman.com/",
    "federation": "WSM",
    "image_logo_url": null
  },
  {
    "id": "trail_100_andorra_2026",
    "title": "Trail 100 Andorra 2026",
    "date_start": "2026-07-25",
    "location": { "city": "Ordino", "country": "Andorra", "full_address": "Ordino, Andorra" },
    "category": "endurance",
    "sport_tag": "trail",
    "registration_link": "https://trail100andorra.com/",
    "federation": "Trail Andorra",
    "image_logo_url": null
  },
  {
    "id": "ultra_pirineu_2026",
    "title": "Ultra Pirineu 2026",
    "date_start": "2026-09-26",
    "location": { "city": "Baga", "country": "Spain", "full_address": "Pyrenees, Catalonia" },
    "category": "endurance",
    "sport_tag": "trail",
    "registration_link": "https://ultrapirineu.com/en/",
    "federation": "UTMB",
    "image_logo_url": null
  },
  {
    "id": "highland_kings_2026",
    "title": "Highland Kings Ultra 2026",
    "date_start": "2026-05-30",
    "location": { "city": "Fort William", "country": "United Kingdom", "full_address": "Scottish Highlands" },
    "category": "endurance",
    "sport_tag": "trail",
    "registration_link": "https://www.highlandkingsultra.com/",
    "federation": "Highland Kings",
    "image_logo_url": null
  },
  {
    "id": "tough_mudder_germany_2026",
    "title": "Tough Mudder Germany 2026",
    "date_start": "2026-07-18",
    "location": { "city": "Munich", "country": "Germany", "full_address": "Munich region" },
    "category": "endurance",
    "sport_tag": "obstacle",
    "registration_link": "https://www.toughmudder.de/",
    "federation": "Tough Mudder",
    "image_logo_url": null
  },
  {
    "id": "warrior_dash_europe_2026",
    "title": "Warrior Dash Europe 2026",
    "date_start": "2026-08-15",
    "location": { "city": "Amsterdam", "country": "Netherlands", "full_address": "Amsterdam region" },
    "category": "endurance",
    "sport_tag": "obstacle",
    "registration_link": "https://www.warriordash.com/",
    "federation": "Warrior Dash",
    "image_logo_url": null
  },
  {
    "id": "rocknroll_lisbon_2026",
    "title": "Rock 'n' Roll Lisbon Half Marathon 2026",
    "date_start": "2026-10-04",
    "location": { "city": "Lisbon", "country": "Portugal", "full_address": "Lisbon" },
    "category": "endurance",
    "sport_tag": "running",
    "registration_link": "https://www.runrocknroll.com/lisbon",
    "federation": "Rock 'n' Roll",
    "image_logo_url": null
  },
  {
    "id": "nocturna_valencia_2026",
    "title": "15K Nocturna Valencia 2026",
    "date_start": "2026-06-13",
    "location": { "city": "Valencia", "country": "Spain", "full_address": "Valencia" },
    "category": "endurance",
    "sport_tag": "running",
    "registration_link": "https://www.valenciaciudaddelrunning.com/",
    "federation": "Valencia Ciudad del Running",
    "image_logo_url": null
  },
  {
    "id": "european_judo_championships_2026",
    "title": "European Judo Championships 2026",
    "date_start": "2026-04-18",
    "location": { "city": "Zagreb", "country": "Croatia", "full_address": "Zagreb, Croatia" },
    "category": "combat",
    "sport_tag": "judo",
    "registration_link": "https://www.eju.net/",
    "federation": "EJU",
    "image_logo_url": null
  },
  {
    "id": "european_grappling_2026",
    "title": "European Grappling Championship 2026",
    "date_start": "2026-06-06",
    "location": { "city": "Rome", "country": "Italy", "full_address": "Rome, Italy" },
    "category": "combat",
    "sport_tag": "grappling",
    "registration_link": "https://www.uww.org/",
    "federation": "UWW",
    "image_logo_url": null
  }
]
