[
  {
    "id": "cfjjb_france_2026",
    "title": "Championnat de France de Jiu-Jitsu Brésilien 2026",
    "date_start": "2026-03-15",
    "location": {
      "city": "Paris",
      "country": "France",
      "full_address": "Paris Expo Porte de Versailles, 1 Place de la Porte de Versailles, 75015 Paris"
    },
    "category": "combat",
    "sport_tag": "jjb",
    "registration_link": "https://www.smoothcomp.com/en/federation/1/cfjjb",
    "federation": "CFJJB",
    "image_logo_url": "https://cfjjb.fr/wp-content/uploads/2021/01/logo-cfjjb.png"
  },
  {
    "id": "cfjjb_idf_2026",
    "title": "Championnat Ile-de-France JJB 2026",
    "date_start": "2026-02-08",
    "location": {
      "city": "Paris",
      "country": "France",
      "full_address": "Gymnase Japy, 2 Rue Japy, 75011 Paris"
    },
    "category": "combat",
    "sport_tag": "jjb",
    "registration_link": "https://www.smoothcomp.com/en/federation/1/cfjjb",
    "federation": "CFJJB",
    "image_logo_url": "https://cfjjb.fr/wp-content/uploads/2021/01/logo-cfjjb.png"
  },
  {
    "id": "ajp_paris_gi_2026",
    "title": "AJP Tour Paris International Pro - Gi",
    "date_start": "2026-04-12",
    "location": {
      "city": "Paris",
      "country": "France",
      "full_address": "Palais des Sports Marcel Cerdan, 141 Rue Danton, 92300 Levallois-Perret"
    },
    "category": "combat",
    "sport_tag": "jjb",
    "registration_link": "https://ajptour.com/en/events",
    "federation": "AJP",
    "image_logo_url": "https://ajptour.com/images/logo-ajp.svg"
  },
  {
    "id": "ajp_paris_nogi_2026",
    "title": "AJP Tour Paris International Pro - No-Gi",
    "date_start": "2026-04-13",
    "location": {
      "city": "Paris",
      "country": "France",
      "full_address": "Palais des Sports Marcel Cerdan, 141 Rue Danton, 92300 Levallois-Perret"
    },
    "category": "combat",
    "sport_tag": "grappling",
    "registration_link": "https://ajptour.com/en/events",
    "federation": "AJP",
    "image_logo_url": "https://ajptour.com/images/logo-ajp.svg"
  },
  {
    "id": "ibjjf_paris_open_2026",
    "title": "IBJJF Paris International Open 2026",
    "date_start": "2026-05-17",
    "location": {
      "city": "Paris",
      "country": "France",
      "full_address": "Halle Georges Carpentier, 81 Boulevard Masséna, 75013 Paris"
    },
    "category": "combat",
    "sport_tag": "jjb",
    "registration_link": "https://ibjjf.com/events",
    "federation": "IBJJF",
    "image_logo_url": "https://ibjjf.com/wp-content/uploads/2021/01/ibjjf-logo.png"
  },
  {
    "id": "grappling_industries_paris_2026",
    "title": "Grappling Industries Paris 2026",
    "date_start": "2026-03-22",
    "location": {
      "city": "Paris",
      "country": "France",
      "full_address": "Stade Pierre de Coubertin, 82 Avenue Georges Lafont, 75016 Paris"
    },
    "category": "combat",
    "sport_tag": "grappling",
    "registration_link": "https://grapplingindustries.com/events/",
    "federation": "Grappling Industries",
    "image_logo_url": "https://grapplingindustries.com/wp-content/uploads/2020/01/GI-Logo.png"
  },
  {
    "id": "cfjjb_lyon_2026",
    "title": "Open de Lyon JJB 2026",
    "date_start": "2026-02-22",
    "location": {
      "city": "Lyon",
      "country": "France",
      "full_address": "Palais des Sports de Gerland, 350 Avenue Jean Jaurès, 69007 Lyon"
    },
    "category": "combat",
    "sport_tag": "jjb",
    "registration_link": "https://www.smoothcomp.com/en/federation/1/cfjjb",
    "federation": "CFJJB",
    "image_logo_url": "https://cfjjb.fr/wp-content/uploads/2021/01/logo-cfjjb.png"
  },
  {
    "id": "cfjjb_marseille_2026",
    "title": "Open de Marseille JJB 2026",
    "date_start": "2026-04-05",
    "location": {
      "city": "Marseille",
      "country": "France",
      "full_address": "Palais des Sports, 81 Rue Raymond Teisseire, 13009 Marseille"
    },
    "category": "combat",
    "sport_tag": "jjb",
    "registration_link": "https://www.smoothcomp.com/en/federation/1/cfjjb",
    "federation": "CFJJB",
    "image_logo_url": "https://cfjjb.fr/wp-content/uploads/2021/01/logo-cfjjb.png"
  },
  {
    "id": "cfjjb_bordeaux_2026",
    "title": "Open de Bordeaux JJB 2026",
    "date_start": "2026-05-10",
    "location": {
      "city": "Bordeaux",
      "country": "France",
      "full_address": "Arkéa Arena, 48-50 Avenue Jean Alfonséa, 33270 Floirac"
    },
    "category": "combat",
    "sport_tag": "jjb",
    "registration_link": "https://www.smoothcomp.com/en/federation/1/cfjjb",
    "federation": "CFJJB",
    "image_logo_url": "https://cfjjb.fr/wp-content/uploads/2021/01/logo-cfjjb.png"
  },
  {
    "id": "cfjjb_toulouse_2026",
    "title": "Open de Toulouse JJB 2026",
    "date_start": "2026-06-14",
    "location": {
      "city": "Toulouse",
      "country": "France",
      "full_address": "Zénith de Toulouse, 11 Avenue Raymond Badiou, 31300 Toulouse"
    },
    "category": "combat",
    "sport_tag": "jjb",
    "registration_link": "https://www.smoothcomp.com/en/federation/1/cfjjb",
    "federation": "CFJJB",
    "image_logo_url": "https://cfjjb.fr/wp-content/uploads/2021/01/logo-cfjjb.png"
  },
  {
    "id": "cfjjb_nantes_2026",
    "title": "Open de Nantes JJB 2026",
    "date_start": "2026-03-29",
    "location": {
      "city": "Nantes",
      "country": "France",
      "full_address": "Palais des Sports de Beaulieu, 5 Rue André Tardieu, 44200 Nantes"
    },
    "category": "combat",
    "sport_tag": "jjb",
    "registration_link": "https://www.smoothcomp.com/en/federation/1/cfjjb",
    "federation": "CFJJB",
    "image_logo_url": "https://cfjjb.fr/wp-content/uploads/2021/01/logo-cfjjb.png"
  },
  {
    "id": "cfjjb_lille_2026",
    "title": "Open de Lille JJB 2026",
    "date_start": "2026-04-19",
    "location": {
      "city": "Lille",
      "country": "France",
      "full_address": "Zénith de Lille, 1 Boulevard des Cités Unies, 59777 Lille"
    },
    "category": "combat",
    "sport_tag": "jjb",
    "registration_link": "https://www.smoothcomp.com/en/federation/1/cfjjb",
    "federation": "CFJJB",
    "image_logo_url": "https://cfjjb.fr/wp-content/uploads/2021/01/logo-cfjjb.png"
  },
  {
    "id": "cfjjb_strasbourg_2026",
    "title": "Open de Strasbourg JJB 2026",
    "date_start": "2026-05-31",
    "location": {
      "city": "Strasbourg",
      "country": "France",
      "full_address": "Rhenus Sport, 7 Place de Bordeaux, 67000 Strasbourg"
    },
    "category": "combat",
    "sport_tag": "jjb",
    "registration_link": "https://www.smoothcomp.com/en/federation/1/cfjjb",
    "federation": "CFJJB",
    "image_logo_url": "https://cfjjb.fr/wp-content/uploads/2021/01/logo-cfjjb.png"
  },
  {
    "id": "cfjjb_nice_2026",
    "title": "Open de Nice JJB 2026",
    "date_start": "2026-06-28",
    "location": {
      "city": "Nice",
      "country": "France",
      "full_address": "Palais des Sports Jean Bouin, 11 Rue François Aune, 06200 Nice"
    },
    "category": "combat",
    "sport_tag": "jjb",
    "registration_link": "https://www.smoothcomp.com/en/federation/1/cfjjb",
    "federation": "CFJJB",
    "image_logo_url": "https://cfjjb.fr/wp-content/uploads/2021/01/logo-cfjjb.png"
  },
  {
    "id": "cfjjb_montpellier_2026",
    "title": "Open de Montpellier JJB 2026",
    "date_start": "2026-07-12",
    "location": {
      "city": "Montpellier",
      "country": "France",
      "full_address": "Arena Sud de France, Avenue de la Pompignane, 34000 Montpellier"
    },
    "category": "combat",
    "sport_tag": "jjb",
    "registration_link": "https://www.smoothcomp.com/en/federation/1/cfjjb",
    "federation": "CFJJB",
    "image_logo_url": "https://cfjjb.fr/wp-content/uploads/2021/01/logo-cfjjb.png"
  },
  {
    "id": "naga_paris_2026",
    "title": "NAGA France Paris 2026",
    "date_start": "2026-09-20",
    "location": {
      "city": "Paris",
      "country": "France",
      "full_address": "Halle Georges Carpentier, 81 Boulevard Masséna, 75013 Paris"
    },
    "category": "combat",
    "sport_tag": "grappling",
    "registration_link": "https://nagafighter.com/",
    "federation": "NAGA",
    "image_logo_url": "https://nagafighter.com/images/naga-logo.png"
  },
  {
    "id": "adcc_france_trials_2026",
    "title": "ADCC French Trials 2026",
    "date_start": "2026-02-15",
    "location": {
      "city": "Paris",
      "country": "France",
      "full_address": "Stade Pierre de Coubertin, 82 Avenue Georges Lafont, 75016 Paris"
    },
    "category": "combat",
    "sport_tag": "grappling",
    "registration_link": "https://adcombat.com/events/",
    "federation": "ADCC",
    "image_logo_url": "https://adcombat.com/wp-content/uploads/2020/01/adcc-logo.png"
  },
  {
    "id": "hyrox_paris_2026",
    "title": "HYROX Paris 2026",
    "date_start": "2026-02-08",
    "location": {
      "city": "Paris",
      "country": "France",
      "full_address": "Paris La Défense Arena, 99 Jardins de l'Arche, 92000 Nanterre"
    },
    "category": "endurance",
    "sport_tag": "hyrox",
    "registration_link": "https://hyrox.com/event/paris/",
    "federation": "HYROX",
    "image_logo_url": "https://hyrox.com/wp-content/uploads/2021/01/hyrox-logo.png"
  },
  {
    "id": "hyrox_lyon_2026",
    "title": "HYROX Lyon 2026",
    "date_start": "2026-03-15",
    "location": {
      "city": "Lyon",
      "country": "France",
      "full_address": "LDLC Arena, 10 Place Aéroport Lyon-Bron, 69500 Bron"
    },
    "category": "endurance",
    "sport_tag": "hyrox",
    "registration_link": "https://hyrox.com/event/lyon/",
    "federation": "HYROX",
    "image_logo_url": "https://hyrox.com/wp-content/uploads/2021/01/hyrox-logo.png"
  },
  {
    "id": "hyrox_marseille_2026",
    "title": "HYROX Marseille 2026",
    "date_start": "2026-04-26",
    "location": {
      "city": "Marseille",
      "country": "France",
      "full_address": "Palais des Sports, 81 Rue Raymond Teisseire, 13009 Marseille"
    },
    "category": "endurance",
    "sport_tag": "hyrox",
    "registration_link": "https://hyrox.com/event/marseille/",
    "federation": "HYROX",
    "image_logo_url": "https://hyrox.com/wp-content/uploads/2021/01/hyrox-logo.png"
  },
  {
    "id": "marathon_paris_2026",
    "title": "Schneider Electric Marathon de Paris 2026",
    "date_start": "2026-04-05",
    "location": {
      "city": "Paris",
      "country": "France",
      "full_address": "Avenue des Champs-Élysées, 75008 Paris"
    },
    "category": "endurance",
    "sport_tag": "marathon",
    "registration_link": "https://www.schneiderelectricparismarathon.com/",
    "federation": null,
    "image_logo_url": "https://www.schneiderelectricparismarathon.com/images/logo-marathon.png"
  },
  {
    "id": "utmb_chamonix_2026",
    "title": "UTMB Mont-Blanc 2026",
    "date_start": "2026-08-25",
    "location": {
      "city": "Chamonix",
      "country": "France",
      "full_address": "Place du Triangle de l'Amitié, 74400 Chamonix-Mont-Blanc"
    },
    "category": "endurance",
    "sport_tag": "trail",
    "registration_link": "https://utmbmontblanc.com/",
    "federation": "UTMB",
    "image_logo_url": "https://utmbmontblanc.com/images/logo-utmb.png"
  },
  {
    "id": "trail_blanc_2026",
    "title": "Marathon du Mont-Blanc 2026",
    "date_start": "2026-06-20",
    "location": {
      "city": "Chamonix",
      "country": "France",
      "full_address": "Place du Triangle de l'Amitié, 74400 Chamonix-Mont-Blanc"
    },
    "category": "endurance",
    "sport_tag": "trail",
    "registration_link": "https://montblancmarathon.net/",
    "federation": null,
    "image_logo_url": "https://montblancmarathon.net/images/logo.png"
  },
  {
    "id": "ecotrail_paris_2026",
    "title": "EcoTrail Paris Ile-de-France 2026",
    "date_start": "2026-03-14",
    "location": {
      "city": "Paris",
      "country": "France",
      "full_address": "Parvis des Droits de l'Homme, Trocadéro, 75016 Paris"
    },
    "category": "endurance",
    "sport_tag": "trail",
    "registration_link": "https://www.ecotrailparis.com/",
    "federation": null,
    "image_logo_url": "https://www.ecotrailparis.com/images/logo-ecotrail.png"
  },
  {
    "id": "semi_paris_2026",
    "title": "Semi-Marathon de Paris 2026",
    "date_start": "2026-03-01",
    "location": {
      "city": "Paris",
      "country": "France",
      "full_address": "Esplanade du Château de Vincennes, 75012 Paris"
    },
    "category": "endurance",
    "sport_tag": "running",
    "registration_link": "https://www.semideparis.com/",
    "federation": null,
    "image_logo_url": "https://www.semideparis.com/images/logo.png"
  },
  {
    "id": "10km_paris_2026",
    "title": "10 km de Paris Centre 2026",
    "date_start": "2026-06-07",
    "location": {
      "city": "Paris",
      "country": "France",
      "full_address": "Quai d'Orsay, 75007 Paris"
    },
    "category": "endurance",
    "sport_tag": "running",
    "registration_link": "https://www.10kmpariscentre.com/",
    "federation": null,
    "image_logo_url": null
  },
  {
    "id": "lyon_urban_trail_2026",
    "title": "Lyon Urban Trail 2026",
    "date_start": "2026-04-12",
    "location": {
      "city": "Lyon",
      "country": "France",
      "full_address": "Place Bellecour, 69002 Lyon"
    },
    "category": "endurance",
    "sport_tag": "trail",
    "registration_link": "https://www.lyonurbantrail.com/",
    "federation": null,
    "image_logo_url": "https://www.lyonurbantrail.com/images/logo.png"
  },
  {
    "id": "marathon_bordeaux_2026",
    "title": "Marathon de Bordeaux Métropole 2026",
    "date_start": "2026-04-19",
    "location": {
      "city": "Bordeaux",
      "country": "France",
      "full_address": "Place des Quinconces, 33000 Bordeaux"
    },
    "category": "endurance",
    "sport_tag": "marathon",
    "registration_link": "https://www.marathondebordeaux.com/",
    "federation": null,
    "image_logo_url": "https://www.marathondebordeaux.com/images/logo.png"
  },
  {
    "id": "crossfit_french_throwdown_2026",
    "title": "French Throwdown 2026",
    "date_start": "2026-05-23",
    "location": {
      "city": "Paris",
      "country": "France",
      "full_address": "Paris Event Center, 20 Avenue de la Porte de la Villette, 75019 Paris"
    },
    "category": "force",
    "sport_tag": "crossfit",
    "registration_link": "https://frenchthrowdown.com/",
    "federation": null,
    "image_logo_url": "https://frenchthrowdown.com/images/logo.png"
  },
  {
    "id": "powerlifting_france_2026",
    "title": "Championnat de France de Force Athlétique 2026",
    "date_start": "2026-03-28",
    "location": {
      "city": "Montluçon",
      "country": "France",
      "full_address": "Athanor, Avenue du Cimetière Neuf, 03100 Montluçon"
    },
    "category": "force",
    "sport_tag": "powerlifting",
    "registration_link": "https://www.ffforce.fr/",
    "federation": "FFFORCE",
    "image_logo_url": "https://www.ffforce.fr/images/logo.png"
  }
]
