[
  {
    "id": "ibjjf_euro_2026",
    "title": "IBJJF European Championship 2026",
    "date_start": "2026-01-16",
    "location": {"city": "Lisbon", "country": "Portugal", "full_address": "Altice Arena, Lisbon"},
    "category": "combat",
    "sport_tag": "jjb",
    "registration_link": "https://ibjjf.com/events/european-championship-2026",
    "federation": "IBJJF",
    "image_logo_url": null
  },
  {
    "id": "cfjjb_france_2026",
    "title": "Championnat de France de Jiu-Jitsu Brésilien 2026",
    "date_start": "2026-03-15",
    "location": {"city": "Paris", "country": "France", "full_address": "Paris Expo Porte de Versailles"},
    "category": "combat",
    "sport_tag": "jjb",
    "registration_link": "https://cfjjb.fr/championnat-france-2026",
    "federation": "CFJJB",
    "image_logo_url": null
  },
  {
    "id": "cfjjb_idf_2026",
    "title": "Championnat Ile-de-France JJB 2026",
    "date_start": "2026-02-08",
    "location": {"city": "Paris", "country": "France", "full_address": "Gymnase Japy, Paris"},
    "category": "combat",
    "sport_tag": "jjb",
    "registration_link": "https://cfjjb.fr/idf-2026",
    "federation": "CFJJB",
    "image_logo_url": null
  },
  {
    "id": "cfjjb_lyon_2026",
    "title": "Open de Lyon JJB 2026",
    "date_start": "2026-02-22",
    "location": {"city": "Lyon", "country": "France", "full_address": "Palais des Sports de Gerland"},
    "category": "combat",
    "sport_tag": "jjb",
    "registration_link": "https://cfjjb.fr/open-lyon-2026",
    "federation": "CFJJB",
    "image_logo_url": null
  },
  {
    "id": "cfjjb_marseille_2026",
    "title": "Open de Marseille JJB 2026",
    "date_start": "2026-04-05",
    "location": {"city": "Marseille", "country": "France", "full_address": "Palais des Sports"},
    "category": "combat",
    "sport_tag": "jjb",
    "registration_link": "https://cfjjb.fr/open-marseille-2026",
    "federation": "CFJJB",
    "image_logo_url": null
  },
  {
    "id": "cfjjb_bordeaux_2026",
    "title": "Open de Bordeaux JJB 2026",
    "date_start": "2026-05-10",
    "location": {"city": "Bordeaux", "country": "France", "full_address": "Arkéa Arena"},
    "category": "combat",
    "sport_tag": "jjb",
    "registration_link": "https://cfjjb.fr/open-bordeaux-2026",
    "federation": "CFJJB",
    "image_logo_url": null
  },
  {
    "id": "cfjjb_toulouse_2026",
    "title": "Open de Toulouse JJB 2026",
    "date_start": "2026-06-14",
    "location": {"city": "Toulouse", "country": "France", "full_address": "Zénith de Toulouse"},
    "category": "combat",
    "sport_tag": "jjb",
    "registration_link": "https://cfjjb.fr/open-toulouse-2026",
    "federation": "CFJJB",
    "image_logo_url": null
  },
  {
    "id": "cfjjb_nantes_2026",
    "title": "Open de Nantes JJB 2026",
    "date_start": "2026-03-29",
    "location": {"city": "Nantes", "country": "France", "full_address": "Palais des Sports de Beaulieu"},
    "category": "combat",
    "sport_tag": "jjb",
    "registration_link": "https://cfjjb.fr/open-nantes-2026",
    "federation": "CFJJB",
    "image_logo_url": null
  },
  {
    "id": "cfjjb_lille_2026",
    "title": "Open de Lille JJB 2026",
    "date_start": "2026-04-19",
    "location": {"city": "Lille", "country": "France", "full_address": "Zénith de Lille"},
    "category": "combat",
    "sport_tag": "jjb",
    "registration_link": "https://cfjjb.fr/open-lille-2026",
    "federation": "CFJJB",
    "image_logo_url": null
  },
  {
    "id": "cfjjb_strasbourg_2026",
    "title": "Open de Strasbourg JJB 2026",
    "date_start": "2026-05-24",
    "location": {"city": "Strasbourg", "country": "France", "full_address": "Rhénus Sport"},
    "category": "combat",
    "sport_tag": "jjb",
    "registration_link": "https://cfjjb.fr/open-strasbourg-2026",
    "federation": "CFJJB",
    "image_logo_url": null
  },
  {
    "id": "ibjjf_paris_spring_2026",
    "title": "IBJJF Paris Spring Open 2026",
    "date_start": "2026-04-12",
    "location": {"city": "Paris", "country": "France", "full_address": "Paris Event Center"},
    "category": "combat",
    "sport_tag": "jjb",
    "registration_link": "https://ibjjf.com/events/paris-spring-open-2026",
    "federation": "IBJJF",
    "image_logo_url": null
  },
  {
    "id": "ibjjf_paris_fall_2026",
    "title": "IBJJF Paris Fall Open 2026",
    "date_start": "2026-10-17",
    "location": {"city": "Paris", "country": "France", "full_address": "Paris Event Center"},
    "category": "combat",
    "sport_tag": "jjb",
    "registration_link": "https://ibjjf.com/events/paris-fall-open-2026",
    "federation": "IBJJF",
    "image_logo_url": null
  },
  {
    "id": "ibjjf_london_2026",
    "title": "IBJJF London Open 2026",
    "date_start": "2026-02-15",
    "location": {"city": "London", "country": "United Kingdom", "full_address": "ExCel London"},
    "category": "combat",
    "sport_tag": "jjb",
    "registration_link": "https://ibjjf.com/events/london-open-2026",
    "federation": "IBJJF",
    "image_logo_url": null
  },
  {
    "id": "ibjjf_madrid_2026",
    "title": "IBJJF Madrid Open 2026",
    "date_start": "2026-03-08",
    "location": {"city": "Madrid", "country": "Spain", "full_address": "IFEMA Madrid"},
    "category": "combat",
    "sport_tag": "jjb",
    "registration_link": "https://ibjjf.com/events/madrid-open-2026",
    "federation": "IBJJF",
    "image_logo_url": null
  },
  {
    "id": "ibjjf_rome_2026",
    "title": "IBJJF Rome Open 2026",
    "date_start": "2026-05-03",
    "location": {"city": "Rome", "country": "Italy", "full_address": "Fiera di Roma"},
    "category": "combat",
    "sport_tag": "jjb",
    "registration_link": "https://ibjjf.com/events/rome-open-2026",
    "federation": "IBJJF",
    "image_logo_url": null
  },
  {
    "id": "ibjjf_amsterdam_2026",
    "title": "IBJJF Amsterdam Open 2026",
    "date_start": "2026-06-07",
    "location": {"city": "Amsterdam", "country": "Netherlands", "full_address": "RAI Amsterdam"},
    "category": "combat",
    "sport_tag": "jjb",
    "registration_link": "https://ibjjf.com/events/amsterdam-open-2026",
    "federation": "IBJJF",
    "image_logo_url": null
  },
  {
    "id": "adcc_euro_trials_2026",
    "title": "ADCC European Trials 2026",
    "date_start": "2026-04-26",
    "location": {"city": "Warsaw", "country": "Poland", "full_address": "Torwar Hall"},
    "category": "combat",
    "sport_tag": "grappling",
    "registration_link": "https://adccombat.com/events/european-trials-2026",
    "federation": "ADCC",
    "image_logo_url": null
  },
  {
    "id": "adcc_france_2026",
    "title": "ADCC French Open 2026",
    "date_start": "2026-03-22",
    "location": {"city": "Paris", "country": "France", "full_address": "Stade Pierre de Coubertin"},
    "category": "combat",
    "sport_tag": "grappling",
    "registration_link": "https://adccombat.com/events/french-open-2026",
    "federation": "ADCC",
    "image_logo_url": null
  },
  {
    "id": "gi_paris_2026",
    "title": "Grappling Industries Paris 2026",
    "date_start": "2026-02-01",
    "location": {"city": "Paris", "country": "France", "full_address": "Paris"},
    "category": "combat",
    "sport_tag": "grappling",
    "registration_link": "https://grapplingindustries.com/events/paris-2026",
    "federation": "Grappling Industries",
    "image_logo_url": null
  },
  {
    "id": "gi_london_2026",
    "title": "Grappling Industries London 2026",
    "date_start": "2026-01-31",
    "location": {"city": "London", "country": "United Kingdom", "full_address": "London"},
    "category": "combat",
    "sport_tag": "grappling",
    "registration_link": "https://grapplingindustries.smoothcomp.com/en/event/25912",
    "federation": "Grappling Industries",
    "image_logo_url": null
  },
  {
    "id": "gi_berlin_2026",
    "title": "Grappling Industries Berlin 2026",
    "date_start": "2026-02-21",
    "location": {"city": "Berlin", "country": "Germany", "full_address": "Berlin"},
    "category": "combat",
    "sport_tag": "grappling",
    "registration_link": "https://grapplingindustries.smoothcomp.com/en/event/25900",
    "federation": "Grappling Industries",
    "image_logo_url": null
  },
  {
    "id": "gi_dublin_2026",
    "title": "Grappling Industries Dublin 2026",
    "date_start": "2026-02-14",
    "location": {"city": "Dublin", "country": "Ireland", "full_address": "Dublin"},
    "category": "combat",
    "sport_tag": "grappling",
    "registration_link": "https://grapplingindustries.smoothcomp.com/en/event/dublin",
    "federation": "Grappling Industries",
    "image_logo_url": null
  },
  {
    "id": "gi_belfast_2026",
    "title": "Grappling Industries Belfast 2026",
    "date_start": "2026-01-10",
    "location": {"city": "Belfast", "country": "United Kingdom", "full_address": "Belfast"},
    "category": "combat",
    "sport_tag": "grappling",
    "registration_link": "https://grapplingindustries.smoothcomp.com/en/event/25861",
    "federation": "Grappling Industries",
    "image_logo_url": null
  },
  {
    "id": "france_grappling_paris_2026",
    "title": "Championnat de France de Grappling 2026",
    "date_start": "2026-02-08",
    "location": {"city": "Paris", "country": "France", "full_address": "Paris"},
    "category": "combat",
    "sport_tag": "grappling",
    "registration_link": "https://smoothcomp.com/en/event/28381",
    "federation": "FFGDA",
    "image_logo_url": null
  },
  {
    "id": "hyrox_paris_2026",
    "title": "HYROX Paris 2026",
    "date_start": "2026-01-25",
    "location": {"city": "Paris", "country": "France", "full_address": "Paris La Défense Arena"},
    "category": "endurance",
    "sport_tag": "hyrox",
    "registration_link": "https://hyrox.com/event/paris-2026",
    "federation": "HYROX",
    "image_logo_url": null
  },
  {
    "id": "hyrox_lyon_2026",
    "title": "HYROX Lyon 2026",
    "date_start": "2026-03-08",
    "location": {"city": "Lyon", "country": "France", "full_address": "LDLC Arena"},
    "category": "endurance",
    "sport_tag": "hyrox",
    "registration_link": "https://hyrox.com/event/lyon-2026",
    "federation": "HYROX",
    "image_logo_url": null
  },
  {
    "id": "hyrox_marseille_2026",
    "title": "HYROX Marseille 2026",
    "date_start": "2026-04-12",
    "location": {"city": "Marseille", "country": "France", "full_address": "Orange Vélodrome"},
    "category": "endurance",
    "sport_tag": "hyrox",
    "registration_link": "https://hyrox.com/event/marseille-2026",
    "federation": "HYROX",
    "image_logo_url": null
  },
  {
    "id": "hyrox_bordeaux_2026",
    "title": "HYROX Bordeaux 2026",
    "date_start": "2026-02-15",
    "location": {"city": "Bordeaux", "country": "France", "full_address": "Arkéa Arena"},
    "category": "endurance",
    "sport_tag": "hyrox",
    "registration_link": "https://hyrox.com/event/bordeaux-2026",
    "federation": "HYROX",
    "image_logo_url": null
  },
  {
    "id": "hyrox_nice_2026",
    "title": "HYROX Nice 2026",
    "date_start": "2026-05-17",
    "location": {"city": "Nice", "country": "France", "full_address": "Allianz Riviera"},
    "category": "endurance",
    "sport_tag": "hyrox",
    "registration_link": "https://hyrox.com/event/nice-2026",
    "federation": "HYROX",
    "image_logo_url": null
  },
  {
    "id": "hyrox_london_2026",
    "title": "HYROX London 2026",
    "date_start": "2026-02-01",
    "location": {"city": "London", "country": "United Kingdom", "full_address": "ExCel London"},
    "category": "endurance",
    "sport_tag": "hyrox",
    "registration_link": "https://hyrox.com/event/london-2026",
    "federation": "HYROX",
    "image_logo_url": null
  },
  {
    "id": "hyrox_berlin_2026",
    "title": "HYROX Berlin 2026",
    "date_start": "2026-01-18",
    "location": {"city": "Berlin", "country": "Germany", "full_address": "Messe Berlin"},
    "category": "endurance",
    "sport_tag": "hyrox",
    "registration_link": "https://hyrox.com/event/berlin-2026",
    "federation": "HYROX",
    "image_logo_url": null
  },
  {
    "id": "hyrox_munich_2026",
    "title": "HYROX Munich 2026",
    "date_start": "2026-03-01",
    "location": {"city": "Munich", "country": "Germany", "full_address": "Olympiahalle"},
    "category": "endurance",
    "sport_tag": "hyrox",
    "registration_link": "https://hyrox.com/event/munich-2026",
    "federation": "HYROX",
    "image_logo_url": null
  },
  {
    "id": "hyrox_hamburg_2026",
    "title": "HYROX Hamburg 2026",
    "date_start": "2026-04-05",
    "location": {"city": "Hamburg", "country": "Germany", "full_address": "Hamburg Messe"},
    "category": "endurance",
    "sport_tag": "hyrox",
    "registration_link": "https://hyrox.com/event/hamburg-2026",
    "federation": "HYROX",
    "image_logo_url": null
  },
  {
    "id": "hyrox_madrid_2026",
    "title": "HYROX Madrid 2026",
    "date_start": "2026-02-22",
    "location": {"city": "Madrid", "country": "Spain", "full_address": "IFEMA Madrid"},
    "category": "endurance",
    "sport_tag": "hyrox",
    "registration_link": "https://hyrox.com/event/madrid-2026",
    "federation": "HYROX",
    "image_logo_url": null
  },
  {
    "id": "hyrox_barcelona_2026",
    "title": "HYROX Barcelona 2026",
    "date_start": "2026-03-15",
    "location": {"city": "Barcelona", "country": "Spain", "full_address": "Fira Barcelona"},
    "category": "endurance",
    "sport_tag": "hyrox",
    "registration_link": "https://hyrox.com/event/barcelona-2026",
    "federation": "HYROX",
    "image_logo_url": null
  },
  {
    "id": "hyrox_amsterdam_2026",
    "title": "HYROX Amsterdam 2026",
    "date_start": "2026-04-19",
    "location": {"city": "Amsterdam", "country": "Netherlands", "full_address": "RAI Amsterdam"},
    "category": "endurance",
    "sport_tag": "hyrox",
    "registration_link": "https://hyrox.com/event/amsterdam-2026",
    "federation": "HYROX",
    "image_logo_url": null
  },
  {
    "id": "hyrox_milan_2026",
    "title": "HYROX Milan 2026",
    "date_start": "2026-05-03",
    "location": {"city": "Milan", "country": "Italy", "full_address": "Fiera Milano"},
    "category": "endurance",
    "sport_tag": "hyrox",
    "registration_link": "https://hyrox.com/event/milan-2026",
    "federation": "HYROX",
    "image_logo_url": null
  },
  {
    "id": "hyrox_world_2026",
    "title": "HYROX World Championship 2026",
    "date_start": "2026-06-14",
    "location": {"city": "Cologne", "country": "Germany", "full_address": "Lanxess Arena"},
    "category": "endurance",
    "sport_tag": "hyrox",
    "registration_link": "https://hyrox.com/event/world-championship-2026",
    "federation": "HYROX",
    "image_logo_url": null
  },
  {
    "id": "marathon_paris_2026",
    "title": "Marathon de Paris 2026",
    "date_start": "2026-04-05",
    "location": {"city": "Paris", "country": "France", "full_address": "Champs-Élysées"},
    "category": "endurance",
    "sport_tag": "marathon",
    "registration_link": "https://www.schneiderelectricparismarathon.com",
    "federation": "ASO",
    "image_logo_url": null
  },
  {
    "id": "semi_paris_2026",
    "title": "Semi-Marathon de Paris 2026",
    "date_start": "2026-03-01",
    "location": {"city": "Paris", "country": "France", "full_address": "Bois de Vincennes"},
    "category": "endurance",
    "sport_tag": "running",
    "registration_link": "https://www.harmoniemutuellesemiparismarathon.com",
    "federation": "ASO",
    "image_logo_url": null
  },
  {
    "id": "marathon_lyon_2026",
    "title": "Run In Lyon - Marathon 2026",
    "date_start": "2026-10-04",
    "location": {"city": "Lyon", "country": "France", "full_address": "Place Bellecour"},
    "category": "endurance",
    "sport_tag": "marathon",
    "registration_link": "https://www.runinlyon.com",
    "federation": "Run In Lyon",
    "image_logo_url": null
  },
  {
    "id": "marathon_marseille_2026",
    "title": "Marathon Marseille-Cassis 2026",
    "date_start": "2026-10-25",
    "location": {"city": "Marseille", "country": "France", "full_address": "Vieux Port"},
    "category": "endurance",
    "sport_tag": "marathon",
    "registration_link": "https://www.marseille-cassis.com",
    "federation": "SCO Ste Marguerite",
    "image_logo_url": null
  },
  {
    "id": "marathon_bordeaux_2026",
    "title": "Marathon de Bordeaux 2026",
    "date_start": "2026-04-19",
    "location": {"city": "Bordeaux", "country": "France", "full_address": "Place des Quinconces"},
    "category": "endurance",
    "sport_tag": "marathon",
    "registration_link": "https://www.marathondebordeaux.com",
    "federation": "Marathon de Bordeaux",
    "image_logo_url": null
  },
  {
    "id": "marathon_toulouse_2026",
    "title": "Marathon de Toulouse 2026",
    "date_start": "2026-10-11",
    "location": {"city": "Toulouse", "country": "France", "full_address": "Capitole"},
    "category": "endurance",
    "sport_tag": "marathon",
    "registration_link": "https://www.marathontoulouse.fr",
    "federation": "Marathon de Toulouse",
    "image_logo_url": null
  },
  {
    "id": "marathon_nice_2026",
    "title": "Marathon Nice-Cannes 2026",
    "date_start": "2026-11-08",
    "location": {"city": "Nice", "country": "France", "full_address": "Promenade des Anglais"},
    "category": "endurance",
    "sport_tag": "marathon",
    "registration_link": "https://www.marathonnicecannes.com",
    "federation": "Marathon Nice-Cannes",
    "image_logo_url": null
  },
  {
    "id": "marathon_nantes_2026",
    "title": "Marathon de Nantes 2026",
    "date_start": "2026-04-26",
    "location": {"city": "Nantes", "country": "France", "full_address": "Château des Ducs"},
    "category": "endurance",
    "sport_tag": "marathon",
    "registration_link": "https://www.marathonnantes.com",
    "federation": "Marathon de Nantes",
    "image_logo_url": null
  },
  {
    "id": "marathon_london_2026",
    "title": "London Marathon 2026",
    "date_start": "2026-04-26",
    "location": {"city": "London", "country": "United Kingdom", "full_address": "Greenwich to Westminster"},
    "category": "endurance",
    "sport_tag": "marathon",
    "registration_link": "https://www.tcslondonmarathon.com",
    "federation": "London Marathon Events",
    "image_logo_url": null
  },
  {
    "id": "marathon_berlin_2026",
    "title": "Berlin Marathon 2026",
    "date_start": "2026-09-27",
    "location": {"city": "Berlin", "country": "Germany", "full_address": "Brandenburg Gate"},
    "category": "endurance",
    "sport_tag": "marathon",
    "registration_link": "https://www.bmw-berlin-marathon.com",
    "federation": "SCC Events",
    "image_logo_url": null
  },
  {
    "id": "marathon_amsterdam_2026",
    "title": "Amsterdam Marathon 2026",
    "date_start": "2026-10-18",
    "location": {"city": "Amsterdam", "country": "Netherlands", "full_address": "Olympic Stadium"},
    "category": "endurance",
    "sport_tag": "marathon",
    "registration_link": "https://www.tcsamsterdammarathon.nl",
    "federation": "Le Champion",
    "image_logo_url": null
  },
  {
    "id": "marathon_barcelona_2026",
    "title": "Barcelona Marathon 2026",
    "date_start": "2026-03-08",
    "location": {"city": "Barcelona", "country": "Spain", "full_address": "Plaça Espanya"},
    "category": "endurance",
    "sport_tag": "marathon",
    "registration_link": "https://www.zurichmaratobarcelona.es",
    "federation": "RPM Racing",
    "image_logo_url": null
  },
  {
    "id": "marathon_rome_2026",
    "title": "Rome Marathon 2026",
    "date_start": "2026-03-15",
    "location": {"city": "Rome", "country": "Italy", "full_address": "Colosseum"},
    "category": "endurance",
    "sport_tag": "marathon",
    "registration_link": "https://www.runromethemarathon.com",
    "federation": "Italia Marathon Club",
    "image_logo_url": null
  },
  {
    "id": "marathon_vienna_2026",
    "title": "Vienna City Marathon 2026",
    "date_start": "2026-04-19",
    "location": {"city": "Vienna", "country": "Austria", "full_address": "Prater"},
    "category": "endurance",
    "sport_tag": "marathon",
    "registration_link": "https://www.vienna-marathon.com",
    "federation": "VCM",
    "image_logo_url": null
  },
  {
    "id": "10k_paris_2026",
    "title": "10km de Paris 2026",
    "date_start": "2026-06-07",
    "location": {"city": "Paris", "country": "France", "full_address": "Tour Eiffel"},
    "category": "endurance",
    "sport_tag": "running",
    "registration_link": "https://www.10kmparis.com",
    "federation": "ASO",
    "image_logo_url": null
  },
  {
    "id": "20km_paris_2026",
    "title": "20km de Paris 2026",
    "date_start": "2026-10-11",
    "location": {"city": "Paris", "country": "France", "full_address": "Tour Eiffel"},
    "category": "endurance",
    "sport_tag": "running",
    "registration_link": "https://www.20kmparis.com",
    "federation": "ASO",
    "image_logo_url": null
  },
  {
    "id": "ekiden_paris_2026",
    "title": "Ekiden de Paris 2026",
    "date_start": "2026-11-15",
    "location": {"city": "Paris", "country": "France", "full_address": "Bois de Vincennes"},
    "category": "endurance",
    "sport_tag": "running",
    "registration_link": "https://www.ekidendeparis.com",
    "federation": "ASO",
    "image_logo_url": null
  },
  {
    "id": "10k_lyon_2026",
    "title": "10km de Lyon 2026",
    "date_start": "2026-06-14",
    "location": {"city": "Lyon", "country": "France", "full_address": "Place Bellecour"},
    "category": "endurance",
    "sport_tag": "running",
    "registration_link": "https://www.runinlyon.com",
    "federation": "Run In Lyon",
    "image_logo_url": null
  },
  {
    "id": "utmb_2026",
    "title": "UTMB Mont-Blanc 2026",
    "date_start": "2026-08-28",
    "location": {"city": "Chamonix", "country": "France", "full_address": "Chamonix Mont-Blanc"},
    "category": "endurance",
    "sport_tag": "trail",
    "registration_link": "https://utmbmontblanc.com",
    "federation": "UTMB",
    "image_logo_url": null
  },
  {
    "id": "ccc_2026",
    "title": "CCC - Courmayeur-Champex-Chamonix 2026",
    "date_start": "2026-08-27",
    "location": {"city": "Chamonix", "country": "France", "full_address": "Chamonix"},
    "category": "endurance",
    "sport_tag": "trail",
    "registration_link": "https://utmbmontblanc.com/ccc",
    "federation": "UTMB",
    "image_logo_url": null
  },
  {
    "id": "tds_2026",
    "title": "TDS - Sur les Traces des Ducs de Savoie 2026",
    "date_start": "2026-08-26",
    "location": {"city": "Chamonix", "country": "France", "full_address": "Chamonix"},
    "category": "endurance",
    "sport_tag": "trail",
    "registration_link": "https://utmbmontblanc.com/tds",
    "federation": "UTMB",
    "image_logo_url": null
  },
  {
    "id": "ocs_2026",
    "title": "OCC - Orsières-Champex-Chamonix 2026",
    "date_start": "2026-08-28",
    "location": {"city": "Chamonix", "country": "France", "full_address": "Chamonix"},
    "category": "endurance",
    "sport_tag": "trail",
    "registration_link": "https://utmbmontblanc.com/occ",
    "federation": "UTMB",
    "image_logo_url": null
  },
  {
    "id": "trail_blancs_2026",
    "title": "Trail des Blancs 2026",
    "date_start": "2026-03-14",
    "location": {"city": "Vallée de Chamonix", "country": "France", "full_address": "Les Houches"},
    "category": "endurance",
    "sport_tag": "trail",
    "registration_link": "https://www.traildesblancs.com",
    "federation": "UTMB",
    "image_logo_url": null
  },
  {
    "id": "ecotrail_paris_2026",
    "title": "EcoTrail Paris 2026",
    "date_start": "2026-03-21",
    "location": {"city": "Paris", "country": "France", "full_address": "Tour Eiffel"},
    "category": "endurance",
    "sport_tag": "trail",
    "registration_link": "https://www.ecotrailparis.com",
    "federation": "EcoTrail",
    "image_logo_url": null
  },
  {
    "id": "saintelyon_2026",
    "title": "SaintéLyon 2026",
    "date_start": "2026-12-05",
    "location": {"city": "Lyon", "country": "France", "full_address": "Saint-Etienne to Lyon"},
    "category": "endurance",
    "sport_tag": "trail",
    "registration_link": "https://www.saintelyon.com",
    "federation": "SaintéLyon",
    "image_logo_url": null
  },
  {
    "id": "trail_templiers_2026",
    "title": "Festival des Templiers 2026",
    "date_start": "2026-10-17",
    "location": {"city": "Millau", "country": "France", "full_address": "Millau, Aveyron"},
    "category": "endurance",
    "sport_tag": "trail",
    "registration_link": "https://www.festivaldestempliers.fr",
    "federation": "Templiers",
    "image_logo_url": null
  },
  {
    "id": "trail_ventoux_2026",
    "title": "Ventoux Trail 2026",
    "date_start": "2026-03-28",
    "location": {"city": "Bédoin", "country": "France", "full_address": "Mont Ventoux"},
    "category": "endurance",
    "sport_tag": "trail",
    "registration_link": "https://www.ventouxtrail.com",
    "federation": "Ventoux Trail",
    "image_logo_url": null
  },
  {
    "id": "trail_gavarnie_2026",
    "title": "Grand Raid des Pyrénées 2026",
    "date_start": "2026-08-21",
    "location": {"city": "Vielle-Aure", "country": "France", "full_address": "Pyrénées"},
    "category": "endurance",
    "sport_tag": "trail",
    "registration_link": "https://www.grandraidpyrenees.com",
    "federation": "GRP",
    "image_logo_url": null
  },
  {
    "id": "trail_reunion_2026",
    "title": "Grand Raid de la Réunion 2026",
    "date_start": "2026-10-22",
    "location": {"city": "Saint-Denis", "country": "France", "full_address": "La Réunion"},
    "category": "endurance",
    "sport_tag": "trail",
    "registration_link": "https://www.grandraid-reunion.com",
    "federation": "Grand Raid",
    "image_logo_url": null
  },
  {
    "id": "trail_verbier_2026",
    "title": "Trail Verbier St-Bernard 2026",
    "date_start": "2026-07-11",
    "location": {"city": "Verbier", "country": "Switzerland", "full_address": "Verbier, Valais"},
    "category": "endurance",
    "sport_tag": "trail",
    "registration_link": "https://www.trailvsb.com",
    "federation": "Trail VSB",
    "image_logo_url": null
  },
  {
    "id": "matterhorn_2026",
    "title": "Matterhorn Ultraks 2026",
    "date_start": "2026-08-22",
    "location": {"city": "Zermatt", "country": "Switzerland", "full_address": "Zermatt"},
    "category": "endurance",
    "sport_tag": "trail",
    "registration_link": "https://www.matterhornultraks.com",
    "federation": "Ultraks",
    "image_logo_url": null
  },
  {
    "id": "eiger_2026",
    "title": "Eiger Ultra Trail 2026",
    "date_start": "2026-07-18",
    "location": {"city": "Grindelwald", "country": "Switzerland", "full_address": "Grindelwald"},
    "category": "endurance",
    "sport_tag": "trail",
    "registration_link": "https://www.eigerultratrail.ch",
    "federation": "Eiger Ultra",
    "image_logo_url": null
  },
  {
    "id": "trail_dolomites_2026",
    "title": "Lavaredo Ultra Trail 2026",
    "date_start": "2026-06-26",
    "location": {"city": "Cortina d'Ampezzo", "country": "Italy", "full_address": "Dolomites"},
    "category": "endurance",
    "sport_tag": "trail",
    "registration_link": "https://www.lavaredo.org",
    "federation": "UTMB",
    "image_logo_url": null
  },
  {
    "id": "transgrancanaria_2026",
    "title": "Transgrancanaria 2026",
    "date_start": "2026-02-27",
    "location": {"city": "Gran Canaria", "country": "Spain", "full_address": "Gran Canaria"},
    "category": "endurance",
    "sport_tag": "trail",
    "registration_link": "https://www.transgrancanaria.net",
    "federation": "UTMB",
    "image_logo_url": null
  }
]
